[
    {
        "city": "Shanghai", 
        "admin": "Shanghai", 
        "country": "China", 
        "population_proper": "14608512", 
        "iso2": "CN", 
        "capital": "admin", 
        "lat": "31.222222", 
        "lng": "121.458056", 
        "population": "14987000"
    }, 
    {
        "city": "Beijing", 
        "admin": "Beijing", 
        "country": "China", 
        "population_proper": "7480601", 
        "iso2": "CN", 
        "capital": "primary", 
        "lat": "39.928819", 
        "lng": "116.388869", 
        "population": "11106000"
    }, 
    {
        "city": "Guangzhou", 
        "admin": "Guangdong", 
        "country": "China", 
        "population_proper": "3152825", 
        "iso2": "CN", 
        "capital": "admin", 
        "lat": "23.116667", 
        "lng": "113.25", 
        "population": "8829000"
    }, 
    {
        "city": "Shenzhen", 
        "admin": "Guangdong", 
        "country": "China", 
        "population_proper": "1002592", 
        "iso2": "CN", 
        "capital": "minor", 
        "lat": "22.533333", 
        "lng": "114.133333", 
        "population": "7581000"
    }, 
    {
        "city": "Wuhan", 
        "admin": "Hubei", 
        "country": "China", 
        "population_proper": "4184206", 
        "iso2": "CN", 
        "capital": "admin", 
        "lat": "30.583333", 
        "lng": "114.266667", 
        "population": "7243000"
    }, 
    {
        "city": "Tianjin", 
        "admin": "Tianjin", 
        "country": "China", 
        "population_proper": "3766207", 
        "iso2": "CN", 
        "capital": "admin", 
        "lat": "39.142222", 
        "lng": "117.176667", 
        "population": "7180000"
    }, 
    {
        "city": "Chongqing", 
        "admin": "Chongqing", 
        "country": "China", 
        "population_proper": "3967028", 
        "iso2": "CN", 
        "capital": "admin", 
        "lat": "29.562778", 
        "lng": "106.552778", 
        "population": "6461000"
    }, 
    {
        "city": "Shenyang", 
        "admin": "Liaoning", 
        "country": "China", 
        "population_proper": "3512192", 
        "iso2": "CN", 
        "capital": "admin", 
        "lat": "41.792222", 
        "lng": "123.432778", 
        "population": "4787000"
    }, 
    {
        "city": "Dongguan", 
        "admin": "Guangdong", 
        "country": "China", 
        "population_proper": "4528000", 
        "iso2": "CN", 
        "capital": "minor", 
        "lat": "23.048889", 
        "lng": "113.744722", 
        "population": "4528000"
    }, 
    {
        "city": "Chengdu", 
        "admin": "Sichuan", 
        "country": "China", 
        "population_proper": "3950437", 
        "iso2": "CN", 
        "capital": "admin", 
        "lat": "30.666667", 
        "lng": "104.066667", 
        "population": "4123000"
    }, 
    {
        "city": "Lianhu", 
        "admin": "Shaanxi", 
        "country": "China", 
        "population_proper": "3225812", 
        "iso2": "CN", 
        "capital": "minor", 
        "lat": "34.258479", 
        "lng": "108.924205", 
        "population": "4009000"
    }, 
    {
        "city": "Hechi", 
        "admin": "Guangxi", 
        "country": "China", 
        "population_proper": "2720379", 
        "iso2": "CN", 
        "capital": "", 
        "lat": "23.0027", 
        "lng": "109.84", 
        "population": "3830000"
    }, 
    {
        "city": "Nanjing", 
        "admin": "Jiangsu", 
        "country": "China", 
        "population_proper": "3087010", 
        "iso2": "CN", 
        "capital": "admin", 
        "lat": "32.061667", 
        "lng": "118.777778", 
        "population": "3679000"
    }, 
    {
        "city": "Guiyang", 
        "admin": "Guizhou", 
        "country": "China", 
        "population_proper": "1171633", 
        "iso2": "CN", 
        "capital": "admin", 
        "lat": "26.583333", 
        "lng": "106.716667", 
        "population": "3662000"
    }, 
    {
        "city": "Harbin", 
        "admin": "Heilongjiang", 
        "country": "China", 
        "population_proper": "3229883", 
        "iso2": "CN", 
        "capital": "admin", 
        "lat": "45.75", 
        "lng": "126.65", 
        "population": "3621000"
    }, 
    {
        "city": "Zhangzhou", 
        "admin": "Fujian", 
        "country": "China", 
        "population_proper": "1338452", 
        "iso2": "CN", 
        "capital": "minor", 
        "lat": "24.513333", 
        "lng": "117.655556", 
        "population": "3531147"
    }, 
    {
        "city": "Changchun", 
        "admin": "Jilin", 
        "country": "China", 
        "population_proper": "2537421", 
        "iso2": "CN", 
        "capital": "admin", 
        "lat": "43.88", 
        "lng": "125.322778", 
        "population": "3183000"
    }, 
    {
        "city": "Dalian", 
        "admin": "Liaoning", 
        "country": "China", 
        "population_proper": "2035307", 
        "iso2": "CN", 
        "capital": "", 
        "lat": "38.912222", 
        "lng": "121.602222", 
        "population": "3167000"
    }, 
    {
        "city": "Zibo", 
        "admin": "Shandong", 
        "country": "China", 
        "population_proper": "669770", 
        "iso2": "CN", 
        "capital": "", 
        "lat": "36.790556", 
        "lng": "118.063333", 
        "population": "3061000"
    }, 
    {
        "city": "Hangzhou", 
        "admin": "Zhejiang", 
        "country": "China", 
        "population_proper": "1878129", 
        "iso2": "CN", 
        "capital": "admin", 
        "lat": "30.29365", 
        "lng": "120.161419", 
        "population": "3007000"
    }, 
    {
        "city": "Kunming", 
        "admin": "Yunnan", 
        "country": "China", 
        "population_proper": "1023674", 
        "iso2": "CN", 
        "capital": "admin", 
        "lat": "25.038889", 
        "lng": "102.718333", 
        "population": "2931000"
    }, 
    {
        "city": "Taiyuan", 
        "admin": "Shanxi", 
        "country": "China", 
        "population_proper": "2722475", 
        "iso2": "CN", 
        "capital": "admin", 
        "lat": "37.869444", 
        "lng": "112.560278", 
        "population": "2913000"
    }, 
    {
        "city": "Qingdao", 
        "admin": "Shandong", 
        "country": "China", 
        "population_proper": "1642245", 
        "iso2": "CN", 
        "capital": "minor", 
        "lat": "36.066049", 
        "lng": "120.369393", 
        "population": "2866000"
    }, 
    {
        "city": "Jinan", 
        "admin": "Shandong", 
        "country": "China", 
        "population_proper": "2069266", 
        "iso2": "CN", 
        "capital": "admin", 
        "lat": "36.668333", 
        "lng": "116.997222", 
        "population": "2798000"
    }, 
    {
        "city": "Zhengzhou", 
        "admin": "Henan", 
        "country": "China", 
        "population_proper": "2014125", 
        "iso2": "CN", 
        "capital": "", 
        "lat": "34.683611", 
        "lng": "113.5325", 
        "population": "2636000"
    }, 
    {
        "city": "Fuzhou", 
        "admin": "Fujian", 
        "country": "China", 
        "population_proper": "1179720", 
        "iso2": "CN", 
        "capital": "admin", 
        "lat": "26.061389", 
        "lng": "119.306111", 
        "population": "2606000"
    }, 
    {
        "city": "Changsha", 
        "admin": "Hunan", 
        "country": "China", 
        "population_proper": "2073938", 
        "iso2": "CN", 
        "capital": "admin", 
        "lat": "28.2", 
        "lng": "112.966667", 
        "population": "2604000"
    }, 
    {
        "city": "Xiangtandong", 
        "admin": "Hunan", 
        "country": "China", 
        "population_proper": "1779960", 
        "iso2": "CN", 
        "capital": "", 
        "lat": "27.866667", 
        "lng": "112.933333", 
        "population": "2586948"
    }, 
    {
        "city": "Lanzhou", 
        "admin": "Gansu", 
        "country": "China", 
        "population_proper": "2004218", 
        "iso2": "CN", 
        "capital": "admin", 
        "lat": "36.057006", 
        "lng": "103.839868", 
        "population": "2561000"
    }, 
    {
        "city": "Xiamen", 
        "admin": "Fujian", 
        "country": "China", 
        "population_proper": "578337", 
        "iso2": "CN", 
        "capital": "minor", 
        "lat": "24.479794", 
        "lng": "118.081869", 
        "population": "2519000"
    }, 
    {
        "city": "Jinjiao", 
        "admin": "Liaoning", 
        "country": "China", 
        "population_proper": "313247", 
        "iso2": "CN", 
        "capital": "", 
        "lat": "40.743394", 
        "lng": "120.816702", 
        "population": "2426000"
    }, 
    {
        "city": "Shijiazhuang", 
        "admin": "Hebei", 
        "country": "China", 
        "population_proper": "1992474", 
        "iso2": "CN", 
        "capital": "admin", 
        "lat": "38.041389", 
        "lng": "114.478611", 
        "population": "2417000"
    }, 
    {
        "city": "Jilin", 
        "admin": "Jilin", 
        "country": "China", 
        "population_proper": "1881977", 
        "iso2": "CN", 
        "capital": "", 
        "lat": "43.850833", 
        "lng": "126.560278", 
        "population": "2396000"
    }, 
    {
        "city": "Wenzhou", 
        "admin": "Zhejiang", 
        "country": "China", 
        "population_proper": "865672", 
        "iso2": "CN", 
        "capital": "", 
        "lat": "27.999416", 
        "lng": "120.66682", 
        "population": "2350000"
    }, 
    {
        "city": "Nanchangshi", 
        "admin": "Jiangxi", 
        "country": "China", 
        "population_proper": "1871351", 
        "iso2": "CN", 
        "capital": "", 
        "lat": "28.655758", 
        "lng": "115.905049", 
        "population": "2350000"
    }, 
    {
        "city": "Nanchong", 
        "admin": "Sichuan", 
        "country": "China", 
        "population_proper": "2174000", 
        "iso2": "CN", 
        "capital": "minor", 
        "lat": "30.795075", 
        "lng": "106.084735", 
        "population": "2174000"
    }, 
    {
        "city": "Nanning", 
        "admin": "Guangxi", 
        "country": "China", 
        "population_proper": "803788", 
        "iso2": "CN", 
        "capital": "admin", 
        "lat": "22.816667", 
        "lng": "108.316667", 
        "population": "2167000"
    }, 
    {
        "city": "\u00dcr\u00fcmqi", 
        "admin": "Xinjiang", 
        "country": "China", 
        "population_proper": "1508225", 
        "iso2": "CN", 
        "capital": "admin", 
        "lat": "43.807347", 
        "lng": "87.630506", 
        "population": "2151000"
    }, 
    {
        "city": "Daguozhuangcun", 
        "admin": "Shandong", 
        "country": "China", 
        "population_proper": "183665", 
        "iso2": "CN", 
        "capital": "", 
        "lat": "34.906549", 
        "lng": "117.60353", 
        "population": "2145000"
    }, 
    {
        "city": "Yantai", 
        "admin": "Shandong", 
        "country": "China", 
        "population_proper": "719332", 
        "iso2": "CN", 
        "capital": "", 
        "lat": "37.533333", 
        "lng": "121.4", 
        "population": "2116000"
    }, 
    {
        "city": "Linyi", 
        "admin": "Shandong", 
        "country": "China", 
        "population_proper": "270669", 
        "iso2": "CN", 
        "capital": "", 
        "lat": "35.063056", 
        "lng": "118.342778", 
        "population": "2082000"
    }, 
    {
        "city": "Haikou", 
        "admin": "Hainan", 
        "country": "China", 
        "population_proper": "1167428", 
        "iso2": "CN", 
        "capital": "admin", 
        "lat": "20.045833", 
        "lng": "110.341667", 
        "population": "2046189"
    }, 
    {
        "city": "Baotou", 
        "admin": "Inner Mongolia", 
        "country": "China", 
        "population_proper": "423329", 
        "iso2": "CN", 
        "capital": "", 
        "lat": "40.652222", 
        "lng": "109.822222", 
        "population": "2036000"
    }, 
    {
        "city": "Hefei", 
        "admin": "Anhui", 
        "country": "China", 
        "population_proper": "1388904", 
        "iso2": "CN", 
        "capital": "admin", 
        "lat": "31.863889", 
        "lng": "117.280833", 
        "population": "2035000"
    }, 
    {
        "city": "Suzhou", 
        "admin": "Anhui", 
        "country": "China", 
        "population_proper": "1964000", 
        "iso2": "CN", 
        "capital": "", 
        "lat": "33.636111", 
        "lng": "116.978889", 
        "population": "1964000"
    }, 
    {
        "city": "Lanzhuang", 
        "admin": "Henan", 
        "country": "China", 
        "population_proper": "251532", 
        "iso2": "CN", 
        "capital": "", 
        "lat": "32.980022", 
        "lng": "112.495059", 
        "population": "1944000"
    }, 
    {
        "city": "Ningbo", 
        "admin": "Zhejiang", 
        "country": "China", 
        "population_proper": "719867", 
        "iso2": "CN", 
        "capital": "minor", 
        "lat": "29.878186", 
        "lng": "121.549453", 
        "population": "1923000"
    }, 
    {
        "city": "Tangshan", 
        "admin": "Hebei", 
        "country": "China", 
        "population_proper": "1596949", 
        "iso2": "CN", 
        "capital": "", 
        "lat": "39.633333", 
        "lng": "118.183333", 
        "population": "1879000"
    }, 
    {
        "city": "Datong", 
        "admin": "Shanxi", 
        "country": "China", 
        "population_proper": "1052678", 
        "iso2": "CN", 
        "capital": "", 
        "lat": "40.093611", 
        "lng": "113.291389", 
        "population": "1873000"
    }, 
    {
        "city": "Shucheng", 
        "admin": "Jiangsu", 
        "country": "China", 
        "population_proper": "1770000", 
        "iso2": "CN", 
        "capital": "minor", 
        "lat": "34.121282", 
        "lng": "118.780783", 
        "population": "1770000"
    }, 
    {
        "city": "Shangqiu", 
        "admin": "Henan", 
        "country": "China", 
        "population_proper": "181218", 
        "iso2": "CN", 
        "capital": "", 
        "lat": "34.45", 
        "lng": "115.65", 
        "population": "1753000"
    }, 
    {
        "city": "Wuxi", 
        "admin": "Jiangsu", 
        "country": "China", 
        "population_proper": "1108647", 
        "iso2": "CN", 
        "capital": "minor", 
        "lat": "31.568873", 
        "lng": "120.288573", 
        "population": "1749000"
    }, 
    {
        "city": "Hohhot", 
        "admin": "Inner Mongolia", 
        "country": "China", 
        "population_proper": "774477", 
        "iso2": "CN", 
        "capital": "admin", 
        "lat": "40.810556", 
        "lng": "111.652222", 
        "population": "1726000"
    }, 
    {
        "city": "Luoyang", 
        "admin": "Henan", 
        "country": "China", 
        "population_proper": "1390581", 
        "iso2": "CN", 
        "capital": "", 
        "lat": "34.683611", 
        "lng": "112.453611", 
        "population": "1715000"
    }, 
    {
        "city": "Daqing", 
        "admin": "Heilongjiang", 
        "country": "China", 
        "population_proper": "203488", 
        "iso2": "CN", 
        "capital": "", 
        "lat": "46.583333", 
        "lng": "125.0", 
        "population": "1693000"
    }, 
    {
        "city": "Lu\u2019an", 
        "admin": "Anhui", 
        "country": "China", 
        "population_proper": "1126455", 
        "iso2": "CN", 
        "capital": "minor", 
        "lat": "31.756944", 
        "lng": "116.491389", 
        "population": "1690000"
    }, 
    {
        "city": "Wanxian", 
        "admin": "Chongqing", 
        "country": "China", 
        "population_proper": "1680000", 
        "iso2": "CN", 
        "capital": "", 
        "lat": "30.815439", 
        "lng": "108.370891", 
        "population": "1680000"
    }, 
    {
        "city": "Suzhou", 
        "admin": "Jiangsu", 
        "country": "China", 
        "population_proper": "1343091", 
        "iso2": "CN", 
        "capital": "minor", 
        "lat": "31.304077", 
        "lng": "120.59538", 
        "population": "1650000"
    }, 
    {
        "city": "Qiqihar", 
        "admin": "Heilongjiang", 
        "country": "China", 
        "population_proper": "882364", 
        "iso2": "CN", 
        "capital": "minor", 
        "lat": "47.34088", 
        "lng": "123.960448", 
        "population": "1641000"
    }, 
    {
        "city": "Anshan", 
        "admin": "Liaoning", 
        "country": "China", 
        "population_proper": "1199275", 
        "iso2": "CN", 
        "capital": "", 
        "lat": "41.123611", 
        "lng": "122.99", 
        "population": "1639000"
    }, 
    {
        "city": "Handan", 
        "admin": "Hebei", 
        "country": "China", 
        "population_proper": "1358318", 
        "iso2": "CN", 
        "capital": "", 
        "lat": "36.600556", 
        "lng": "114.467778", 
        "population": "1631000"
    }, 
    {
        "city": "Tai\u2019an", 
        "admin": "Shandong", 
        "country": "China", 
        "population_proper": "1629000", 
        "iso2": "CN", 
        "capital": "", 
        "lat": "36.185278", 
        "lng": "117.12", 
        "population": "1629000"
    }, 
    {
        "city": "Shantou", 
        "admin": "Guangdong", 
        "country": "China", 
        "population_proper": "1333973", 
        "iso2": "CN", 
        "capital": "minor", 
        "lat": "23.36814", 
        "lng": "116.71479", 
        "population": "1601000"
    }, 
    {
        "city": "Zhanjiang", 
        "admin": "Guangdong", 
        "country": "China", 
        "population_proper": "637790", 
        "iso2": "CN", 
        "capital": "minor", 
        "lat": "21.281452", 
        "lng": "110.342713", 
        "population": "1590000"
    }, 
    {
        "city": "Xiantao", 
        "admin": "Hubei", 
        "country": "China", 
        "population_proper": "239406", 
        "iso2": "CN", 
        "capital": "", 
        "lat": "30.383333", 
        "lng": "113.4", 
        "population": "1556000"
    }, 
    {
        "city": "Weifang", 
        "admin": "Shandong", 
        "country": "China", 
        "population_proper": "394732", 
        "iso2": "CN", 
        "capital": "", 
        "lat": "36.71", 
        "lng": "119.101944", 
        "population": "1553000"
    }, 
    {
        "city": "Xinyang", 
        "admin": "Henan", 
        "country": "China", 
        "population_proper": "1282888", 
        "iso2": "CN", 
        "capital": "", 
        "lat": "32.122778", 
        "lng": "114.065556", 
        "population": "1541000"
    }, 
    {
        "city": "Luzhou", 
        "admin": "Sichuan", 
        "country": "China", 
        "population_proper": "1537000", 
        "iso2": "CN", 
        "capital": "minor", 
        "lat": "28.872391", 
        "lng": "105.44049", 
        "population": "1537000"
    }, 
    {
        "city": "Tantou", 
        "admin": "Jiangxi", 
        "country": "China", 
        "population_proper": "932269", 
        "iso2": "CN", 
        "capital": "", 
        "lat": "25.9559", 
        "lng": "114.938", 
        "population": "1500000"
    }, 
    {
        "city": "Liuzhou", 
        "admin": "Guangxi", 
        "country": "China", 
        "population_proper": "1375061", 
        "iso2": "CN", 
        "capital": "minor", 
        "lat": "24.312582", 
        "lng": "109.389157", 
        "population": "1497000"
    }, 
    {
        "city": "Fushun", 
        "admin": "Liaoning", 
        "country": "China", 
        "population_proper": "1400646", 
        "iso2": "CN", 
        "capital": "", 
        "lat": "41.855833", 
        "lng": "123.923333", 
        "population": "1470000"
    }, 
    {
        "city": "Changde", 
        "admin": "Hunan", 
        "country": "China", 
        "population_proper": "517780", 
        "iso2": "CN", 
        "capital": "", 
        "lat": "29.167407", 
        "lng": "111.707688", 
        "population": "1469000"
    }, 
    {
        "city": "Neijiang", 
        "admin": "Sichuan", 
        "country": "China", 
        "population_proper": "546854", 
        "iso2": "CN", 
        "capital": "minor", 
        "lat": "29.583536", 
        "lng": "105.06216", 
        "population": "1466000"
    }, 
    {
        "city": "Quanzhou", 
        "admin": "Fujian", 
        "country": "China", 
        "population_proper": "184143", 
        "iso2": "CN", 
        "capital": "minor", 
        "lat": "24.913889", 
        "lng": "118.585833", 
        "population": "1463000"
    }, 
    {
        "city": "Huainan", 
        "admin": "Anhui", 
        "country": "China", 
        "population_proper": "1027655", 
        "iso2": "CN", 
        "capital": "", 
        "lat": "32.626389", 
        "lng": "116.996944", 
        "population": "1451000"
    }, 
    {
        "city": "Suining", 
        "admin": "Sichuan", 
        "country": "China", 
        "population_proper": "1425000", 
        "iso2": "CN", 
        "capital": "minor", 
        "lat": "30.508017", 
        "lng": "105.573324", 
        "population": "1425000"
    }, 
    {
        "city": "Mianyang", 
        "admin": "Sichuan", 
        "country": "China", 
        "population_proper": "264136", 
        "iso2": "CN", 
        "capital": "minor", 
        "lat": "31.459339", 
        "lng": "104.754235", 
        "population": "1396000"
    }, 
    {
        "city": "Huashan", 
        "admin": "Anhui", 
        "country": "China", 
        "population_proper": "633940", 
        "iso2": "CN", 
        "capital": "", 
        "lat": "31.701453", 
        "lng": "118.495632", 
        "population": "1366302"
    }, 
    {
        "city": "Yiyang", 
        "admin": "Hunan", 
        "country": "China", 
        "population_proper": "202608", 
        "iso2": "CN", 
        "capital": "", 
        "lat": "28.589167", 
        "lng": "112.328333", 
        "population": "1352000"
    }, 
    {
        "city": "Heze", 
        "admin": "Shandong", 
        "country": "China", 
        "population_proper": "254602", 
        "iso2": "CN", 
        "capital": "minor", 
        "lat": "35.239289", 
        "lng": "115.473578", 
        "population": "1338000"
    }, 
    {
        "city": "Zhangshu", 
        "admin": "Jiangsu", 
        "country": "China", 
        "population_proper": "949018", 
        "iso2": "CN", 
        "capital": "", 
        "lat": "31.805735", 
        "lng": "120.005059", 
        "population": "1327000"
    }, 
    {
        "city": "Chifeng", 
        "admin": "Inner Mongolia", 
        "country": "China", 
        "population_proper": "346654", 
        "iso2": "CN", 
        "capital": "minor", 
        "lat": "42.268333", 
        "lng": "118.963611", 
        "population": "1277000"
    }, 
    {
        "city": "Huaiyin", 
        "admin": "Jiangsu", 
        "country": "China", 
        "population_proper": "555230", 
        "iso2": "CN", 
        "capital": "", 
        "lat": "33.588611", 
        "lng": "119.019167", 
        "population": "1264000"
    }, 
    {
        "city": "Mudanjiang", 
        "admin": "Heilongjiang", 
        "country": "China", 
        "population_proper": "665915", 
        "iso2": "CN", 
        "capital": "minor", 
        "lat": "44.583333", 
        "lng": "129.6", 
        "population": "1244000"
    }, 
    {
        "city": "Huzhou", 
        "admin": "Zhejiang", 
        "country": "China", 
        "population_proper": "158320", 
        "iso2": "CN", 
        "capital": "minor", 
        "lat": "30.870301", 
        "lng": "120.093297", 
        "population": "1231000"
    }, 
    {
        "city": "Maoling", 
        "admin": "Guangdong", 
        "country": "China", 
        "population_proper": "1217715", 
        "iso2": "CN", 
        "capital": "", 
        "lat": "21.891112", 
        "lng": "110.84503", 
        "population": "1217715"
    }, 
    {
        "city": "Jining", 
        "admin": "Shandong", 
        "country": "China", 
        "population_proper": "450327", 
        "iso2": "CN", 
        "capital": "", 
        "lat": "35.405", 
        "lng": "116.581389", 
        "population": "1186000"
    }, 
    {
        "city": "Leshan", 
        "admin": "Sichuan", 
        "country": "China", 
        "population_proper": "154477", 
        "iso2": "CN", 
        "capital": "", 
        "lat": "29.562275", 
        "lng": "103.76386", 
        "population": "1157000"
    }, 
    {
        "city": "Shangrao", 
        "admin": "Jiangxi", 
        "country": "China", 
        "population_proper": "700266", 
        "iso2": "CN", 
        "capital": "minor", 
        "lat": "28.453221", 
        "lng": "117.968604", 
        "population": "1144577"
    }, 
    {
        "city": "Yuzhi", 
        "admin": "Guangxi", 
        "country": "China", 
        "population_proper": "148485", 
        "iso2": "CN", 
        "capital": "", 
        "lat": "22.6089", 
        "lng": "110.114", 
        "population": "1127000"
    }, 
    {
        "city": "Xianyangshi", 
        "admin": "Shaanxi", 
        "country": "China", 
        "population_proper": "1126000", 
        "iso2": "CN", 
        "capital": "", 
        "lat": "34.346335", 
        "lng": "108.718164", 
        "population": "1126000"
    }, 
    {
        "city": "Baoding", 
        "admin": "Hebei", 
        "country": "China", 
        "population_proper": "995652", 
        "iso2": "CN", 
        "capital": "", 
        "lat": "38.851111", 
        "lng": "115.490278", 
        "population": "1107000"
    }, 
    {
        "city": "Zigong", 
        "admin": "Sichuan", 
        "country": "China", 
        "population_proper": "689961", 
        "iso2": "CN", 
        "capital": "", 
        "lat": "29.341622", 
        "lng": "104.776887", 
        "population": "1105000"
    }, 
    {
        "city": "Ankang", 
        "admin": "Shaanxi", 
        "country": "China", 
        "population_proper": "950000", 
        "iso2": "CN", 
        "capital": "", 
        "lat": "32.68", 
        "lng": "109.017222", 
        "population": "1100000"
    }, 
    {
        "city": "Jinhua", 
        "admin": "Zhejiang", 
        "country": "China", 
        "population_proper": "142206", 
        "iso2": "CN", 
        "capital": "minor", 
        "lat": "29.106782", 
        "lng": "119.644207", 
        "population": "1092852"
    }, 
    {
        "city": "Zhuzhou", 
        "admin": "Hunan", 
        "country": "China", 
        "population_proper": "709358", 
        "iso2": "CN", 
        "capital": "minor", 
        "lat": "27.833333", 
        "lng": "113.15", 
        "population": "1080000"
    }, 
    {
        "city": "Xiangyang", 
        "admin": "Hubei", 
        "country": "China", 
        "population_proper": "462956", 
        "iso2": "CN", 
        "capital": "minor", 
        "lat": "32.042203", 
        "lng": "112.144794", 
        "population": "1069000"
    }, 
    {
        "city": "Xining", 
        "admin": "Qinghai", 
        "country": "China", 
        "population_proper": "767531", 
        "iso2": "CN", 
        "capital": "admin", 
        "lat": "36.625541", 
        "lng": "101.75739", 
        "population": "1048000"
    }, 
    {
        "city": "Zhangjiakou", 
        "admin": "Hebei", 
        "country": "China", 
        "population_proper": "559641", 
        "iso2": "CN", 
        "capital": "", 
        "lat": "40.81", 
        "lng": "114.879444", 
        "population": "1046000"
    }, 
    {
        "city": "Zhuhai", 
        "admin": "Guangdong", 
        "country": "China", 
        "population_proper": "1023000", 
        "iso2": "CN", 
        "capital": "minor", 
        "lat": "22.276944", 
        "lng": "113.567778", 
        "population": "1023000"
    }, 
    {
        "city": "Jiamusi", 
        "admin": "Heilongjiang", 
        "country": "China", 
        "population_proper": "549549", 
        "iso2": "CN", 
        "capital": "minor", 
        "lat": "46.799272", 
        "lng": "130.316328", 
        "population": "1020000"
    }, 
    {
        "city": "Hengyang", 
        "admin": "Hunan", 
        "country": "China", 
        "population_proper": "759602", 
        "iso2": "CN", 
        "capital": "", 
        "lat": "26.888056", 
        "lng": "112.615", 
        "population": "1016000"
    }, 
    {
        "city": "Benxi", 
        "admin": "Liaoning", 
        "country": "China", 
        "population_proper": "835866", 
        "iso2": "CN", 
        "capital": "", 
        "lat": "41.288611", 
        "lng": "123.765", 
        "population": "1012000"
    }, 
    {
        "city": "Tiezhuang", 
        "admin": "Hebei", 
        "country": "China", 
        "population_proper": "759718", 
        "iso2": "CN", 
        "capital": "", 
        "lat": "39.947966", 
        "lng": "119.571539", 
        "population": "1003000"
    }, 
    {
        "city": "Yaowan", 
        "admin": "Yunnan", 
        "country": "China", 
        "population_proper": "850000", 
        "iso2": "CN", 
        "capital": "", 
        "lat": "25.1067", 
        "lng": "99.1515", 
        "population": "1000000"
    }, 
    {
        "city": "Yinchuan", 
        "admin": "Ningxia", 
        "country": "China", 
        "population_proper": "324228", 
        "iso2": "CN", 
        "capital": "admin", 
        "lat": "38.468056", 
        "lng": "106.273056", 
        "population": "991000"
    }, 
    {
        "city": "Jiaxing", 
        "admin": "Zhejiang", 
        "country": "China", 
        "population_proper": "466101", 
        "iso2": "CN", 
        "capital": "minor", 
        "lat": "30.752198", 
        "lng": "120.749997", 
        "population": "988000"
    }, 
    {
        "city": "Guilin", 
        "admin": "Guangxi", 
        "country": "China", 
        "population_proper": "649352", 
        "iso2": "CN", 
        "capital": "minor", 
        "lat": "25.281944", 
        "lng": "110.286389", 
        "population": "987000"
    }, 
    {
        "city": "Yichun", 
        "admin": "Jiangxi", 
        "country": "China", 
        "population_proper": "982000", 
        "iso2": "CN", 
        "capital": "minor", 
        "lat": "27.833333", 
        "lng": "114.4", 
        "population": "982000"
    }, 
    {
        "city": "Dayangquan", 
        "admin": "Shanxi", 
        "country": "China", 
        "population_proper": "722155", 
        "iso2": "CN", 
        "capital": "", 
        "lat": "37.846236", 
        "lng": "113.565415", 
        "population": "981448"
    }, 
    {
        "city": "Jixi", 
        "admin": "Heilongjiang", 
        "country": "China", 
        "population_proper": "403759", 
        "iso2": "CN", 
        "capital": "minor", 
        "lat": "45.301095", 
        "lng": "130.957181", 
        "population": "965000"
    }, 
    {
        "city": "Xigui", 
        "admin": "Jiangsu", 
        "country": "China", 
        "population_proper": "962656", 
        "iso2": "CN", 
        "capital": "", 
        "lat": "34.4065", 
        "lng": "118.341", 
        "population": "962656"
    }, 
    {
        "city": "Pingxiang", 
        "admin": "Jiangxi", 
        "country": "China", 
        "population_proper": "372123", 
        "iso2": "CN", 
        "capital": "minor", 
        "lat": "27.616722", 
        "lng": "113.853527", 
        "population": "961000"
    }, 
    {
        "city": "Jinzhou", 
        "admin": "Liaoning", 
        "country": "China", 
        "population_proper": "604269", 
        "iso2": "CN", 
        "capital": "", 
        "lat": "41.107778", 
        "lng": "121.141667", 
        "population": "956000"
    }, 
    {
        "city": "Nantong", 
        "admin": "Jiangsu", 
        "country": "China", 
        "population_proper": "666251", 
        "iso2": "CN", 
        "capital": "minor", 
        "lat": "32.030278", 
        "lng": "120.874722", 
        "population": "947000"
    }, 
    {
        "city": "Foshan", 
        "admin": "Guangdong", 
        "country": "China", 
        "population_proper": "627348", 
        "iso2": "CN", 
        "capital": "minor", 
        "lat": "23.026771", 
        "lng": "113.131483", 
        "population": "943000"
    }, 
    {
        "city": "Xinyu", 
        "admin": "Jiangxi", 
        "country": "China", 
        "population_proper": "97480", 
        "iso2": "CN", 
        "capital": "minor", 
        "lat": "27.839063", 
        "lng": "114.845909", 
        "population": "913000"
    }, 
    {
        "city": "Huaibei", 
        "admin": "Anhui", 
        "country": "China", 
        "population_proper": "903039", 
        "iso2": "CN", 
        "capital": "", 
        "lat": "33.974444", 
        "lng": "116.791667", 
        "population": "913000"
    }, 
    {
        "city": "Yibin", 
        "admin": "Sichuan", 
        "country": "China", 
        "population_proper": "242111", 
        "iso2": "CN", 
        "capital": "minor", 
        "lat": "28.766667", 
        "lng": "104.623832", 
        "population": "902000"
    }, 
    {
        "city": "Xiaobengbu", 
        "admin": "Anhui", 
        "country": "China", 
        "population_proper": "576648", 
        "iso2": "CN", 
        "capital": "", 
        "lat": "32.95", 
        "lng": "117.333333", 
        "population": "894000"
    }, 
    {
        "city": "Tongliao", 
        "admin": "Inner Mongolia", 
        "country": "China", 
        "population_proper": "261110", 
        "iso2": "CN", 
        "capital": "minor", 
        "lat": "43.6125", 
        "lng": "122.265278", 
        "population": "884000"
    }, 
    {
        "city": "Yangjiang", 
        "admin": "Guangdong", 
        "country": "China", 
        "population_proper": "630000", 
        "iso2": "CN", 
        "capital": "minor", 
        "lat": "21.855635", 
        "lng": "111.962724", 
        "population": "872363"
    }, 
    {
        "city": "Dandong", 
        "admin": "Liaoning", 
        "country": "China", 
        "population_proper": "631973", 
        "iso2": "CN", 
        "capital": "", 
        "lat": "40.129167", 
        "lng": "124.394722", 
        "population": "870000"
    }, 
    {
        "city": "Xuanzhou", 
        "admin": "Anhui", 
        "country": "China", 
        "population_proper": "866000", 
        "iso2": "CN", 
        "capital": "", 
        "lat": "30.9525", 
        "lng": "118.755278", 
        "population": "866000"
    }, 
    {
        "city": "Rizhao", 
        "admin": "Shandong", 
        "country": "China", 
        "population_proper": "246387", 
        "iso2": "CN", 
        "capital": "minor", 
        "lat": "35.4275", 
        "lng": "119.455278", 
        "population": "865000"
    }, 
    {
        "city": "Jiaozuo", 
        "admin": "Henan", 
        "country": "China", 
        "population_proper": "517540", 
        "iso2": "CN", 
        "capital": "", 
        "lat": "35.239722", 
        "lng": "113.233056", 
        "population": "857000"
    }, 
    {
        "city": "Zhenjiang", 
        "admin": "Jiangsu", 
        "country": "China", 
        "population_proper": "632552", 
        "iso2": "CN", 
        "capital": "minor", 
        "lat": "32.210863", 
        "lng": "119.455076", 
        "population": "854000"
    }, 
    {
        "city": "Anshun", 
        "admin": "Guizhou", 
        "country": "China", 
        "population_proper": "351936", 
        "iso2": "CN", 
        "capital": "", 
        "lat": "26.25", 
        "lng": "105.933333", 
        "population": "849000"
    }, 
    {
        "city": "Zunyi", 
        "admin": "Guizhou", 
        "country": "China", 
        "population_proper": "466292", 
        "iso2": "CN", 
        "capital": "", 
        "lat": "27.686667", 
        "lng": "106.907222", 
        "population": "849000"
    }, 
    {
        "city": "Jingshan", 
        "admin": "Henan", 
        "country": "China", 
        "population_proper": "849000", 
        "iso2": "CN", 
        "capital": "", 
        "lat": "33.699317", 
        "lng": "113.321308", 
        "population": "849000"
    }, 
    {
        "city": "Yuci", 
        "admin": "Shanxi", 
        "country": "China", 
        "population_proper": "235929", 
        "iso2": "CN", 
        "capital": "", 
        "lat": "37.680278", 
        "lng": "112.731944", 
        "population": "840000"
    }, 
    {
        "city": "Yuanzhuang", 
        "admin": "Jiangsu", 
        "country": "China", 
        "population_proper": "839000", 
        "iso2": "CN", 
        "capital": "", 
        "lat": "33.417761", 
        "lng": "120.103747", 
        "population": "839000"
    }, 
    {
        "city": "Linfen", 
        "admin": "Shanxi", 
        "country": "China", 
        "population_proper": "232566", 
        "iso2": "CN", 
        "capital": "", 
        "lat": "36.088889", 
        "lng": "111.518889", 
        "population": "834000"
    }, 
    {
        "city": "Heiyutang", 
        "admin": "Hunan", 
        "country": "China", 
        "population_proper": "826000", 
        "iso2": "CN", 
        "capital": "", 
        "lat": "29.342355", 
        "lng": "113.075988", 
        "population": "826000"
    }, 
    {
        "city": "Xingyi", 
        "admin": "Guizhou", 
        "country": "China", 
        "population_proper": "263072", 
        "iso2": "CN", 
        "capital": "", 
        "lat": "25.05", 
        "lng": "104.983333", 
        "population": "816000"
    }, 
    {
        "city": "Langfang", 
        "admin": "Hebei", 
        "country": "China", 
        "population_proper": "578931", 
        "iso2": "CN", 
        "capital": "", 
        "lat": "39.509722", 
        "lng": "116.694722", 
        "population": "810000"
    }, 
    {
        "city": "Wuhubei", 
        "admin": "Anhui", 
        "country": "China", 
        "population_proper": "507524", 
        "iso2": "CN", 
        "capital": "", 
        "lat": "31.35", 
        "lng": "118.333333", 
        "population": "810000"
    }, 
    {
        "city": "Shuibatang", 
        "admin": "Yunnan", 
        "country": "China", 
        "population_proper": "109400", 
        "iso2": "CN", 
        "capital": "", 
        "lat": "27.3292", 
        "lng": "103.747", 
        "population": "809000"
    }, 
    {
        "city": "Lingyuan", 
        "admin": "Liaoning", 
        "country": "China", 
        "population_proper": "806000", 
        "iso2": "CN", 
        "capital": "", 
        "lat": "41.24", 
        "lng": "119.401111", 
        "population": "806000"
    }, 
    {
        "city": "Baojishi", 
        "admin": "Shaanxi", 
        "country": "China", 
        "population_proper": "800000", 
        "iso2": "CN", 
        "capital": "", 
        "lat": "34.372458", 
        "lng": "107.164499", 
        "population": "800000"
    }, 
    {
        "city": "Yingkou", 
        "admin": "Liaoning", 
        "country": "China", 
        "population_proper": "591159", 
        "iso2": "CN", 
        "capital": "minor", 
        "lat": "40.664823", 
        "lng": "122.228329", 
        "population": "795000"
    }, 
    {
        "city": "Liaoyang", 
        "admin": "Liaoning", 
        "country": "China", 
        "population_proper": "687890", 
        "iso2": "CN", 
        "capital": "", 
        "lat": "41.271944", 
        "lng": "123.173056", 
        "population": "794000"
    }, 
    {
        "city": "Yichun", 
        "admin": "Heilongjiang", 
        "country": "China", 
        "population_proper": "109223", 
        "iso2": "CN", 
        "capital": "minor", 
        "lat": "47.724635", 
        "lng": "128.823885", 
        "population": "777000"
    }, 
    {
        "city": "Shaoxing", 
        "admin": "Zhejiang", 
        "country": "China", 
        "population_proper": "421283", 
        "iso2": "CN", 
        "capital": "minor", 
        "lat": "30.011019", 
        "lng": "120.571528", 
        "population": "777000"
    }, 
    {
        "city": "Fuyuan", 
        "admin": "Zhejiang", 
        "country": "China", 
        "population_proper": "771000", 
        "iso2": "CN", 
        "capital": "", 
        "lat": "30.016673", 
        "lng": "119.948248", 
        "population": "771000"
    }, 
    {
        "city": "Fuxin", 
        "admin": "Liaoning", 
        "country": "China", 
        "population_proper": "689050", 
        "iso2": "CN", 
        "capital": "", 
        "lat": "42.058889", 
        "lng": "121.745", 
        "population": "770000"
    }, 
    {
        "city": "Shiyanjie", 
        "admin": "Hubei", 
        "country": "China", 
        "population_proper": "537647", 
        "iso2": "CN", 
        "capital": "", 
        "lat": "32.6", 
        "lng": "110.75", 
        "population": "770000"
    }, 
    {
        "city": "Jincheng", 
        "admin": "Shanxi", 
        "country": "China", 
        "population_proper": "280000", 
        "iso2": "CN", 
        "capital": "minor", 
        "lat": "35.502222", 
        "lng": "112.832778", 
        "population": "760000"
    }, 
    {
        "city": "Hegang", 
        "admin": "Heilongjiang", 
        "country": "China", 
        "population_proper": "572360", 
        "iso2": "CN", 
        "capital": "minor", 
        "lat": "47.351176", 
        "lng": "130.300115", 
        "population": "743307"
    }, 
    {
        "city": "Beihai", 
        "admin": "Guangxi", 
        "country": "China", 
        "population_proper": "405600", 
        "iso2": "CN", 
        "capital": "", 
        "lat": "21.483333", 
        "lng": "109.1", 
        "population": "728978"
    }, 
    {
        "city": "Shaoguan", 
        "admin": "Guangdong", 
        "country": "China", 
        "population_proper": "628749", 
        "iso2": "CN", 
        "capital": "minor", 
        "lat": "24.8", 
        "lng": "113.583333", 
        "population": "720266"
    }, 
    {
        "city": "Hanzhuang", 
        "admin": "Jiangsu", 
        "country": "China", 
        "population_proper": "715600", 
        "iso2": "CN", 
        "capital": "", 
        "lat": "34.586132", 
        "lng": "119.230194", 
        "population": "715600"
    }, 
    {
        "city": "Qingyuan", 
        "admin": "Guangdong", 
        "country": "China", 
        "population_proper": "706717", 
        "iso2": "CN", 
        "capital": "minor", 
        "lat": "23.7", 
        "lng": "113.033333", 
        "population": "706717"
    }, 
    {
        "city": "Changzhi", 
        "admin": "Shanxi", 
        "country": "China", 
        "population_proper": "706000", 
        "iso2": "CN", 
        "capital": "minor", 
        "lat": "36.183889", 
        "lng": "113.105278", 
        "population": "706000"
    }, 
    {
        "city": "Huangshi", 
        "admin": "Hubei", 
        "country": "China", 
        "population_proper": "688090", 
        "iso2": "CN", 
        "capital": "minor", 
        "lat": "30.204173", 
        "lng": "115.077607", 
        "population": "688090"
    }, 
    {
        "city": "Huadong", 
        "admin": "Henan", 
        "country": "China", 
        "population_proper": "666322", 
        "iso2": "CN", 
        "capital": "", 
        "lat": "35.6967", 
        "lng": "114.984", 
        "population": "666322"
    }, 
    {
        "city": "Changping", 
        "admin": "Beijing", 
        "country": "China", 
        "population_proper": "130000", 
        "iso2": "CN", 
        "capital": "", 
        "lat": "40.216116", 
        "lng": "116.234708", 
        "population": "614821"
    }, 
    {
        "city": "Taizhou", 
        "admin": "Jiangsu", 
        "country": "China", 
        "population_proper": "612356", 
        "iso2": "CN", 
        "capital": "minor", 
        "lat": "32.49069", 
        "lng": "119.908119", 
        "population": "612356"
    }, 
    {
        "city": "Xingtai", 
        "admin": "Hebei", 
        "country": "China", 
        "population_proper": "611739", 
        "iso2": "CN", 
        "capital": "", 
        "lat": "37.063056", 
        "lng": "114.494167", 
        "population": "611739"
    }, 
    {
        "city": "Anqing", 
        "admin": "Anhui", 
        "country": "China", 
        "population_proper": "358661", 
        "iso2": "CN", 
        "capital": "minor", 
        "lat": "30.513646", 
        "lng": "117.047234", 
        "population": "580497"
    }, 
    {
        "city": "Shihezi", 
        "admin": "Xinjiang", 
        "country": "China", 
        "population_proper": "572772", 
        "iso2": "CN", 
        "capital": "minor", 
        "lat": "44.302298", 
        "lng": "86.036938", 
        "population": "573182"
    }, 
    {
        "city": "Shuozhou", 
        "admin": "Shanxi", 
        "country": "China", 
        "population_proper": "246137", 
        "iso2": "CN", 
        "capital": "minor", 
        "lat": "39.315833", 
        "lng": "112.4225", 
        "population": "570000"
    }, 
    {
        "city": "Tongling", 
        "admin": "Anhui", 
        "country": "China", 
        "population_proper": "312588", 
        "iso2": "CN", 
        "capital": "", 
        "lat": "30.933333", 
        "lng": "117.816667", 
        "population": "562832"
    }, 
    {
        "city": "Weihai", 
        "admin": "Shandong", 
        "country": "China", 
        "population_proper": "152595", 
        "iso2": "CN", 
        "capital": "minor", 
        "lat": "37.509136", 
        "lng": "122.113557", 
        "population": "560255"
    }, 
    {
        "city": "Siping", 
        "admin": "Jilin", 
        "country": "China", 
        "population_proper": "502013", 
        "iso2": "CN", 
        "capital": "", 
        "lat": "43.163333", 
        "lng": "124.368611", 
        "population": "555609"
    }, 
    {
        "city": "Sunjialong", 
        "admin": "Jiangxi", 
        "country": "China", 
        "population_proper": "545616", 
        "iso2": "CN", 
        "capital": "", 
        "lat": "29.697889", 
        "lng": "115.991215", 
        "population": "545616"
    }, 
    {
        "city": "Kashgar", 
        "admin": "Xinjiang", 
        "country": "China", 
        "population_proper": "400225", 
        "iso2": "CN", 
        "capital": "minor", 
        "lat": "39.470655", 
        "lng": "75.989513", 
        "population": "543914"
    }, 
    {
        "city": "Yangzhou", 
        "admin": "Jiangsu", 
        "country": "China", 
        "population_proper": "539715", 
        "iso2": "CN", 
        "capital": "", 
        "lat": "32.397222", 
        "lng": "119.435833", 
        "population": "539715"
    }, 
    {
        "city": "Jiangmen", 
        "admin": "Guangdong", 
        "country": "China", 
        "population_proper": "532419", 
        "iso2": "CN", 
        "capital": "minor", 
        "lat": "22.583333", 
        "lng": "113.083333", 
        "population": "532419"
    }, 
    {
        "city": "Cangzhou", 
        "admin": "Hebei", 
        "country": "China", 
        "population_proper": "527681", 
        "iso2": "CN", 
        "capital": "", 
        "lat": "38.316667", 
        "lng": "116.866667", 
        "population": "527681"
    }, 
    {
        "city": "Jiangxia", 
        "admin": "Jiangxi", 
        "country": "China", 
        "population_proper": "460194", 
        "iso2": "CN", 
        "capital": "", 
        "lat": "27.15415", 
        "lng": "114.976572", 
        "population": "520248"
    }, 
    {
        "city": "Shashi", 
        "admin": "Hubei", 
        "country": "China", 
        "population_proper": "498780", 
        "iso2": "CN", 
        "capital": "", 
        "lat": "30.307222", 
        "lng": "112.244722", 
        "population": "520000"
    }, 
    {
        "city": "Liaoyuan", 
        "admin": "Jilin", 
        "country": "China", 
        "population_proper": "465249", 
        "iso2": "CN", 
        "capital": "", 
        "lat": "42.903611", 
        "lng": "125.135833", 
        "population": "506548"
    }, 
    {
        "city": "Shuangyashan", 
        "admin": "Heilongjiang", 
        "country": "China", 
        "population_proper": "500000", 
        "iso2": "CN", 
        "capital": "", 
        "lat": "46.636111", 
        "lng": "131.153889", 
        "population": "500000"
    }, 
    {
        "city": "Wuwei", 
        "admin": "Gansu", 
        "country": "China", 
        "population_proper": "493092", 
        "iso2": "CN", 
        "capital": "minor", 
        "lat": "37.926718", 
        "lng": "102.632018", 
        "population": "493092"
    }, 
    {
        "city": "Yanji", 
        "admin": "Jilin", 
        "country": "China", 
        "population_proper": "326957", 
        "iso2": "CN", 
        "capital": "", 
        "lat": "42.9075", 
        "lng": "129.507778", 
        "population": "488740"
    }, 
    {
        "city": "Zhaoqing", 
        "admin": "Guangdong", 
        "country": "China", 
        "population_proper": "361969", 
        "iso2": "CN", 
        "capital": "minor", 
        "lat": "23.051157", 
        "lng": "112.459722", 
        "population": "480000"
    }, 
    {
        "city": "Jiaojiang", 
        "admin": "Zhejiang", 
        "country": "China", 
        "population_proper": "470804", 
        "iso2": "CN", 
        "capital": "", 
        "lat": "28.680278", 
        "lng": "121.442778", 
        "population": "471500"
    }, 
    {
        "city": "Chaoyang", 
        "admin": "Liaoning", 
        "country": "China", 
        "population_proper": "410005", 
        "iso2": "CN", 
        "capital": "", 
        "lat": "41.570278", 
        "lng": "120.458611", 
        "population": "470296"
    }, 
    {
        "city": "Jingdezhen", 
        "admin": "Jiangxi", 
        "country": "China", 
        "population_proper": "310565", 
        "iso2": "CN", 
        "capital": "minor", 
        "lat": "29.2947", 
        "lng": "117.207887", 
        "population": "457298"
    }, 
    {
        "city": "Hengshui", 
        "admin": "Hebei", 
        "country": "China", 
        "population_proper": "456356", 
        "iso2": "CN", 
        "capital": "", 
        "lat": "37.732222", 
        "lng": "115.701111", 
        "population": "456356"
    }, 
    {
        "city": "Taihe", 
        "admin": "Heilongjiang", 
        "country": "China", 
        "population_proper": "345033", 
        "iso2": "CN", 
        "capital": "", 
        "lat": "45.761951", 
        "lng": "130.851307", 
        "population": "450617"
    }, 
    {
        "city": "Chengde", 
        "admin": "Hebei", 
        "country": "China", 
        "population_proper": "305933", 
        "iso2": "CN", 
        "capital": "", 
        "lat": "40.9725", 
        "lng": "117.936111", 
        "population": "449325"
    }, 
    {
        "city": "Xuwan", 
        "admin": "Henan", 
        "country": "China", 
        "population_proper": "449258", 
        "iso2": "CN", 
        "capital": "", 
        "lat": "34.033597", 
        "lng": "113.865298", 
        "population": "449258"
    }, 
    {
        "city": "Wuzhou", 
        "admin": "Guangxi", 
        "country": "China", 
        "population_proper": "265846", 
        "iso2": "CN", 
        "capital": "minor", 
        "lat": "23.483333", 
        "lng": "111.316667", 
        "population": "442315"
    }, 
    {
        "city": "Wanyuan", 
        "admin": "Sichuan", 
        "country": "China", 
        "population_proper": "213365", 
        "iso2": "CN", 
        "capital": "", 
        "lat": "32.4188", 
        "lng": "105.863", 
        "population": "437435"
    }, 
    {
        "city": "Chaozhou", 
        "admin": "Guangdong", 
        "country": "China", 
        "population_proper": "424787", 
        "iso2": "CN", 
        "capital": "minor", 
        "lat": "23.665129", 
        "lng": "116.637864", 
        "population": "424787"
    }, 
    {
        "city": "Luohe", 
        "admin": "Henan", 
        "country": "China", 
        "population_proper": "417356", 
        "iso2": "CN", 
        "capital": "minor", 
        "lat": "33.563941", 
        "lng": "114.042717", 
        "population": "417356"
    }, 
    {
        "city": "Meizhou", 
        "admin": "Guangdong", 
        "country": "China", 
        "population_proper": "144212", 
        "iso2": "CN", 
        "capital": "minor", 
        "lat": "24.297687", 
        "lng": "116.107241", 
        "population": "414930"
    }, 
    {
        "city": "Yili", 
        "admin": "Xinjiang", 
        "country": "China", 
        "population_proper": "403489", 
        "iso2": "CN", 
        "capital": "minor", 
        "lat": "43.9", 
        "lng": "81.35", 
        "population": "403489"
    }, 
    {
        "city": "Yuxi", 
        "admin": "Yunnan", 
        "country": "China", 
        "population_proper": "103829", 
        "iso2": "CN", 
        "capital": "minor", 
        "lat": "24.355", 
        "lng": "102.542222", 
        "population": "396325"
    }, 
    {
        "city": "Baicheng", 
        "admin": "Jilin", 
        "country": "China", 
        "population_proper": "316970", 
        "iso2": "CN", 
        "capital": "minor", 
        "lat": "45.607457", 
        "lng": "122.820763", 
        "population": "386861"
    }, 
    {
        "city": "Xichang", 
        "admin": "Sichuan", 
        "country": "China", 
        "population_proper": "126787", 
        "iso2": "CN", 
        "capital": "minor", 
        "lat": "27.896422", 
        "lng": "102.263415", 
        "population": "379993"
    }, 
    {
        "city": "Dezhou", 
        "admin": "Shandong", 
        "country": "China", 
        "population_proper": "379555", 
        "iso2": "CN", 
        "capital": "minor", 
        "lat": "37.451269", 
        "lng": "116.310462", 
        "population": "379555"
    }, 
    {
        "city": "Zhoukou", 
        "admin": "Henan", 
        "country": "China", 
        "population_proper": "377061", 
        "iso2": "CN", 
        "capital": "minor", 
        "lat": "33.633333", 
        "lng": "114.633333", 
        "population": "377061"
    }, 
    {
        "city": "Putian", 
        "admin": "Fujian", 
        "country": "China", 
        "population_proper": "376558", 
        "iso2": "CN", 
        "capital": "minor", 
        "lat": "25.439444", 
        "lng": "119.010278", 
        "population": "376558"
    }, 
    {
        "city": "Shache", 
        "admin": "Xinjiang", 
        "country": "China", 
        "population_proper": "191291", 
        "iso2": "CN", 
        "capital": "", 
        "lat": "38.416667", 
        "lng": "77.240556", 
        "population": "373492"
    }, 
    {
        "city": "Quzhou", 
        "admin": "Zhejiang", 
        "country": "China", 
        "population_proper": "82216", 
        "iso2": "CN", 
        "capital": "", 
        "lat": "28.959444", 
        "lng": "118.868611", 
        "population": "370000"
    }, 
    {
        "city": "Longyan", 
        "admin": "Fujian", 
        "country": "China", 
        "population_proper": "367896", 
        "iso2": "CN", 
        "capital": "minor", 
        "lat": "25.107222", 
        "lng": "117.0225", 
        "population": "367896"
    }, 
    {
        "city": "Sanya", 
        "admin": "Hainan", 
        "country": "China", 
        "population_proper": "144753", 
        "iso2": "CN", 
        "capital": "minor", 
        "lat": "18.243056", 
        "lng": "109.505", 
        "population": "362689"
    }, 
    {
        "city": "Fuyu", 
        "admin": "Jilin", 
        "country": "China", 
        "population_proper": "138704", 
        "iso2": "CN", 
        "capital": "", 
        "lat": "45.183333", 
        "lng": "124.816667", 
        "population": "356905"
    }, 
    {
        "city": "Wafangdian", 
        "admin": "Liaoning", 
        "country": "China", 
        "population_proper": "250591", 
        "iso2": "CN", 
        "capital": "", 
        "lat": "39.618333", 
        "lng": "122.008056", 
        "population": "355844"
    }, 
    {
        "city": "Aksu", 
        "admin": "Xinjiang", 
        "country": "China", 
        "population_proper": "279389", 
        "iso2": "CN", 
        "capital": "minor", 
        "lat": "41.271958", 
        "lng": "80.240853", 
        "population": "340020"
    }, 
    {
        "city": "Tieling", 
        "admin": "Liaoning", 
        "country": "China", 
        "population_proper": "333907", 
        "iso2": "CN", 
        "capital": "", 
        "lat": "42.293056", 
        "lng": "123.841389", 
        "population": "340000"
    }, 
    {
        "city": "Shawan", 
        "admin": "Sichuan", 
        "country": "China", 
        "population_proper": "340000", 
        "iso2": "CN", 
        "capital": "", 
        "lat": "30.006", 
        "lng": "103.021", 
        "population": "340000"
    }, 
    {
        "city": "Hanguzhan", 
        "admin": "Tianjin", 
        "country": "China", 
        "population_proper": "208369", 
        "iso2": "CN", 
        "capital": "", 
        "lat": "39.266667", 
        "lng": "117.8", 
        "population": "332793"
    }, 
    {
        "city": "Heyuan", 
        "admin": "Guangdong", 
        "country": "China", 
        "population_proper": "207600", 
        "iso2": "CN", 
        "capital": "minor", 
        "lat": "23.733333", 
        "lng": "114.683333", 
        "population": "330961"
    }, 
    {
        "city": "Baishan", 
        "admin": "Jilin", 
        "country": "China", 
        "population_proper": "330000", 
        "iso2": "CN", 
        "capital": "minor", 
        "lat": "41.938526", 
        "lng": "126.419651", 
        "population": "330000"
    }, 
    {
        "city": "Chenzhou", 
        "admin": "Hunan", 
        "country": "China", 
        "population_proper": "179038", 
        "iso2": "CN", 
        "capital": "minor", 
        "lat": "25.8", 
        "lng": "113.033333", 
        "population": "322997"
    }, 
    {
        "city": "Ningde", 
        "admin": "Fujian", 
        "country": "China", 
        "population_proper": "65170", 
        "iso2": "CN", 
        "capital": "minor", 
        "lat": "26.661667", 
        "lng": "119.522778", 
        "population": "314077"
    }, 
    {
        "city": "Huizhou", 
        "admin": "Guangdong", 
        "country": "China", 
        "population_proper": "289201", 
        "iso2": "CN", 
        "capital": "minor", 
        "lat": "23.083333", 
        "lng": "114.4", 
        "population": "289201"
    }, 
    {
        "city": "Tongchuanshi", 
        "admin": "Shaanxi", 
        "country": "China", 
        "population_proper": "223603", 
        "iso2": "CN", 
        "capital": "", 
        "lat": "35.074739", 
        "lng": "109.084953", 
        "population": "282258"
    }, 
    {
        "city": "Jining", 
        "admin": "Inner Mongolia", 
        "country": "China", 
        "population_proper": "258757", 
        "iso2": "CN", 
        "capital": "", 
        "lat": "41.0275", 
        "lng": "113.105833", 
        "population": "281716"
    }, 
    {
        "city": "Xinzhou", 
        "admin": "Shanxi", 
        "country": "China", 
        "population_proper": "154003", 
        "iso2": "CN", 
        "capital": "minor", 
        "lat": "38.409167", 
        "lng": "112.733333", 
        "population": "279607"
    }, 
    {
        "city": "Jinshi", 
        "admin": "Hunan", 
        "country": "China", 
        "population_proper": "82906", 
        "iso2": "CN", 
        "capital": "minor", 
        "lat": "29.60487", 
        "lng": "111.870116", 
        "population": "274000"
    }, 
    {
        "city": "Hotan", 
        "admin": "Xinjiang", 
        "country": "China", 
        "population_proper": "114000", 
        "iso2": "CN", 
        "capital": "minor", 
        "lat": "37.107497", 
        "lng": "79.935485", 
        "population": "261730"
    }, 
    {
        "city": "Zhuanghe", 
        "admin": "Liaoning", 
        "country": "China", 
        "population_proper": "80384", 
        "iso2": "CN", 
        "capital": "", 
        "lat": "39.700833", 
        "lng": "122.991111", 
        "population": "261510"
    }, 
    {
        "city": "Turpan", 
        "admin": "Xinjiang", 
        "country": "China", 
        "population_proper": "102827", 
        "iso2": "CN", 
        "capital": "minor", 
        "lat": "42.947694", 
        "lng": "89.178862", 
        "population": "254900"
    }, 
    {
        "city": "Chuxiong", 
        "admin": "Yunnan", 
        "country": "China", 
        "population_proper": "254370", 
        "iso2": "CN", 
        "capital": "", 
        "lat": "25.036389", 
        "lng": "101.545556", 
        "population": "254370"
    }, 
    {
        "city": "Suihua", 
        "admin": "Heilongjiang", 
        "country": "China", 
        "population_proper": "249561", 
        "iso2": "CN", 
        "capital": "minor", 
        "lat": "46.639536", 
        "lng": "126.995082", 
        "population": "252245"
    }, 
    {
        "city": "Linhai", 
        "admin": "Zhejiang", 
        "country": "China", 
        "population_proper": "152937", 
        "iso2": "CN", 
        "capital": "", 
        "lat": "28.848147", 
        "lng": "121.128073", 
        "population": "251759"
    }, 
    {
        "city": "Laiyang", 
        "admin": "Shandong", 
        "country": "China", 
        "population_proper": "169594", 
        "iso2": "CN", 
        "capital": "", 
        "lat": "36.975833", 
        "lng": "120.713611", 
        "population": "250000"
    }, 
    {
        "city": "Qinzhou", 
        "admin": "Guangxi", 
        "country": "China", 
        "population_proper": "100996", 
        "iso2": "CN", 
        "capital": "minor", 
        "lat": "21.972965", 
        "lng": "108.626123", 
        "population": "245376"
    }, 
    {
        "city": "Hebi", 
        "admin": "Henan", 
        "country": "China", 
        "population_proper": "244662", 
        "iso2": "CN", 
        "capital": "", 
        "lat": "35.899167", 
        "lng": "114.1925", 
        "population": "244662"
    }, 
    {
        "city": "Ulanhot", 
        "admin": "Inner Mongolia", 
        "country": "China", 
        "population_proper": "165846", 
        "iso2": "CN", 
        "capital": "", 
        "lat": "46.083333", 
        "lng": "122.083333", 
        "population": "241894"
    }, 
    {
        "city": "Xiahuang", 
        "admin": "Jiangxi", 
        "country": "China", 
        "population_proper": "241104", 
        "iso2": "CN", 
        "capital": "", 
        "lat": "28.02544", 
        "lng": "116.363591", 
        "population": "241104"
    }, 
    {
        "city": "Shayinshi", 
        "admin": "Hubei", 
        "country": "China", 
        "population_proper": "122411", 
        "iso2": "CN", 
        "capital": "", 
        "lat": "29.704411", 
        "lng": "112.439849", 
        "population": "231787"
    }, 
    {
        "city": "Zhangye", 
        "admin": "Gansu", 
        "country": "China", 
        "population_proper": "96228", 
        "iso2": "CN", 
        "capital": "minor", 
        "lat": "38.934167", 
        "lng": "100.451667", 
        "population": "230728"
    }, 
    {
        "city": "Beipiao", 
        "admin": "Liaoning", 
        "country": "China", 
        "population_proper": "154999", 
        "iso2": "CN", 
        "capital": "", 
        "lat": "41.791944", 
        "lng": "120.779167", 
        "population": "228515"
    }, 
    {
        "city": "Qiantucheng", 
        "admin": "Shandong", 
        "country": "China", 
        "population_proper": "226930", 
        "iso2": "CN", 
        "capital": "", 
        "lat": "36.423265", 
        "lng": "115.99729", 
        "population": "226930"
    }, 
    {
        "city": "Hancheng", 
        "admin": "Shaanxi", 
        "country": "China", 
        "population_proper": "58049", 
        "iso2": "CN", 
        "capital": "", 
        "lat": "35.460278", 
        "lng": "110.429167", 
        "population": "222135"
    }, 
    {
        "city": "Lhasa", 
        "admin": "Tibet", 
        "country": "China", 
        "population_proper": "118721", 
        "iso2": "CN", 
        "capital": "admin", 
        "lat": "29.65", 
        "lng": "91.1", 
        "population": "219599"
    }, 
    {
        "city": "Wuhai", 
        "admin": "Inner Mongolia", 
        "country": "China", 
        "population_proper": "218427", 
        "iso2": "CN", 
        "capital": "minor", 
        "lat": "39.684422", 
        "lng": "106.815825", 
        "population": "218427"
    }, 
    {
        "city": "Nanping", 
        "admin": "Fujian", 
        "country": "China", 
        "population_proper": "171674", 
        "iso2": "CN", 
        "capital": "minor", 
        "lat": "26.645", 
        "lng": "118.173611", 
        "population": "213054"
    }, 
    {
        "city": "Sanming", 
        "admin": "Fujian", 
        "country": "China", 
        "population_proper": "439", 
        "iso2": "CN", 
        "capital": "minor", 
        "lat": "26.248611", 
        "lng": "117.618611", 
        "population": "209444"
    }, 
    {
        "city": "Pingliang", 
        "admin": "Gansu", 
        "country": "China", 
        "population_proper": "108156", 
        "iso2": "CN", 
        "capital": "minor", 
        "lat": "35.539167", 
        "lng": "106.686111", 
        "population": "207256"
    }, 
    {
        "city": "Korla", 
        "admin": "Xinjiang", 
        "country": "China", 
        "population_proper": "179465", 
        "iso2": "CN", 
        "capital": "minor", 
        "lat": "41.760547", 
        "lng": "86.152309", 
        "population": "206373"
    }, 
    {
        "city": "Jiutai", 
        "admin": "Jilin", 
        "country": "China", 
        "population_proper": "175115", 
        "iso2": "CN", 
        "capital": "", 
        "lat": "44.1525", 
        "lng": "125.832778", 
        "population": "205399"
    }, 
    {
        "city": "Puqi", 
        "admin": "Hubei", 
        "country": "China", 
        "population_proper": "132891", 
        "iso2": "CN", 
        "capital": "", 
        "lat": "29.716667", 
        "lng": "113.883333", 
        "population": "205164"
    }, 
    {
        "city": "Liangjiang", 
        "admin": "Guangdong", 
        "country": "China", 
        "population_proper": "92827", 
        "iso2": "CN", 
        "capital": "", 
        "lat": "24.805556", 
        "lng": "112.383889", 
        "population": "203639"
    }, 
    {
        "city": "Huangyan", 
        "admin": "Zhejiang", 
        "country": "China", 
        "population_proper": "150448", 
        "iso2": "CN", 
        "capital": "", 
        "lat": "28.650097", 
        "lng": "121.265912", 
        "population": "198713"
    }, 
    {
        "city": "Dunhua", 
        "admin": "Jilin", 
        "country": "China", 
        "population_proper": "148844", 
        "iso2": "CN", 
        "capital": "", 
        "lat": "43.3725", 
        "lng": "128.2425", 
        "population": "191870"
    }, 
    {
        "city": "Anda", 
        "admin": "Heilongjiang", 
        "country": "China", 
        "population_proper": "181271", 
        "iso2": "CN", 
        "capital": "minor", 
        "lat": "46.40202", 
        "lng": "125.314536", 
        "population": "181533"
    }, 
    {
        "city": "Zhanwang", 
        "admin": "Heilongjiang", 
        "country": "China", 
        "population_proper": "154406", 
        "iso2": "CN", 
        "capital": "", 
        "lat": "46.047334", 
        "lng": "125.942455", 
        "population": "179980"
    }, 
    {
        "city": "Lishui", 
        "admin": "Zhejiang", 
        "country": "China", 
        "population_proper": "98946", 
        "iso2": "CN", 
        "capital": "minor", 
        "lat": "28.460417", 
        "lng": "119.910291", 
        "population": "172777"
    }, 
    {
        "city": "Weinanshi", 
        "admin": "Shaanxi", 
        "country": "China", 
        "population_proper": "172321", 
        "iso2": "CN", 
        "capital": "", 
        "lat": "34.493766", 
        "lng": "109.493083", 
        "population": "172321"
    }, 
    {
        "city": "Fuyang", 
        "admin": "Anhui", 
        "country": "China", 
        "population_proper": "170023", 
        "iso2": "CN", 
        "capital": "", 
        "lat": "32.9", 
        "lng": "115.816667", 
        "population": "170023"
    }, 
    {
        "city": "Simao", 
        "admin": "Yunnan", 
        "country": "China", 
        "population_proper": "162725", 
        "iso2": "CN", 
        "capital": "minor", 
        "lat": "22.788627", 
        "lng": "100.974807", 
        "population": "162725"
    }, 
    {
        "city": "Xiaoganzhan", 
        "admin": "Hubei", 
        "country": "China", 
        "population_proper": "160437", 
        "iso2": "CN", 
        "capital": "", 
        "lat": "30.95", 
        "lng": "113.933333", 
        "population": "160437"
    }, 
    {
        "city": "Dali", 
        "admin": "Yunnan", 
        "country": "China", 
        "population_proper": "134040", 
        "iso2": "CN", 
        "capital": "", 
        "lat": "25.58474", 
        "lng": "100.212292", 
        "population": "156685"
    }, 
    {
        "city": "Yulinshi", 
        "admin": "Shaanxi", 
        "country": "China", 
        "population_proper": "90870", 
        "iso2": "CN", 
        "capital": "", 
        "lat": "38.291807", 
        "lng": "109.737531", 
        "population": "155960"
    }, 
    {
        "city": "Beian", 
        "admin": "Heilongjiang", 
        "country": "China", 
        "population_proper": "154936", 
        "iso2": "CN", 
        "capital": "", 
        "lat": "48.239335", 
        "lng": "126.504552", 
        "population": "154936"
    }, 
    {
        "city": "Dongzhugu", 
        "admin": "Hebei", 
        "country": "China", 
        "population_proper": "152934", 
        "iso2": "CN", 
        "capital": "", 
        "lat": "38.4758", 
        "lng": "115.015", 
        "population": "152934"
    }, 
    {
        "city": "Xishan", 
        "admin": "Yunnan", 
        "country": "China", 
        "population_proper": "64404", 
        "iso2": "CN", 
        "capital": "", 
        "lat": "23.3597", 
        "lng": "104.235", 
        "population": "152388"
    }, 
    {
        "city": "Deyang", 
        "admin": "Sichuan", 
        "country": "China", 
        "population_proper": "152194", 
        "iso2": "CN", 
        "capital": "minor", 
        "lat": "31.130192", 
        "lng": "104.381981", 
        "population": "152194"
    }, 
    {
        "city": "Jiayuguan", 
        "admin": "Gansu", 
        "country": "China", 
        "population_proper": "122396", 
        "iso2": "CN", 
        "capital": "minor", 
        "lat": "39.793163", 
        "lng": "98.29767", 
        "population": "148279"
    }, 
    {
        "city": "Hujiachong", 
        "admin": "Shaanxi", 
        "country": "China", 
        "population_proper": "145986", 
        "iso2": "CN", 
        "capital": "", 
        "lat": "33.106791", 
        "lng": "107.060205", 
        "population": "145986"
    }, 
    {
        "city": "Jinchang", 
        "admin": "Gansu", 
        "country": "China", 
        "population_proper": "138977", 
        "iso2": "CN", 
        "capital": "minor", 
        "lat": "38.521129", 
        "lng": "102.187786", 
        "population": "144363"
    }, 
    {
        "city": "Altay", 
        "admin": "Xinjiang", 
        "country": "China", 
        "population_proper": "139341", 
        "iso2": "CN", 
        "capital": "minor", 
        "lat": "47.848641", 
        "lng": "88.133607", 
        "population": "142000"
    }, 
    {
        "city": "Jieshou", 
        "admin": "Anhui", 
        "country": "China", 
        "population_proper": "141993", 
        "iso2": "CN", 
        "capital": "", 
        "lat": "33.25", 
        "lng": "115.35", 
        "population": "141993"
    }, 
    {
        "city": "Congjiatun", 
        "admin": "Jilin", 
        "country": "China", 
        "population_proper": "141482", 
        "iso2": "CN", 
        "capital": "", 
        "lat": "44.425063", 
        "lng": "125.134863", 
        "population": "141482"
    }, 
    {
        "city": "Dunhuang", 
        "admin": "Gansu", 
        "country": "China", 
        "population_proper": "138356", 
        "iso2": "CN", 
        "capital": "", 
        "lat": "40.166667", 
        "lng": "94.683333", 
        "population": "140094"
    }, 
    {
        "city": "Zalantun", 
        "admin": "Inner Mongolia", 
        "country": "China", 
        "population_proper": "132224", 
        "iso2": "CN", 
        "capital": "minor", 
        "lat": "48.0", 
        "lng": "122.716667", 
        "population": "138032"
    }, 
    {
        "city": "Shizuishan", 
        "admin": "Ningxia", 
        "country": "China", 
        "population_proper": "83078", 
        "iso2": "CN", 
        "capital": "", 
        "lat": "39.233333", 
        "lng": "106.769444", 
        "population": "136570"
    }, 
    {
        "city": "Shuangcheng", 
        "admin": "Heilongjiang", 
        "country": "China", 
        "population_proper": "106340", 
        "iso2": "CN", 
        "capital": "", 
        "lat": "45.35", 
        "lng": "126.283333", 
        "population": "130710"
    }, 
    {
        "city": "Macheng", 
        "admin": "Hubei", 
        "country": "China", 
        "population_proper": "126366", 
        "iso2": "CN", 
        "capital": "", 
        "lat": "31.178333", 
        "lng": "115.031944", 
        "population": "126366"
    }, 
    {
        "city": "Laiwu", 
        "admin": "Shandong", 
        "country": "China", 
        "population_proper": "124108", 
        "iso2": "CN", 
        "capital": "", 
        "lat": "36.192778", 
        "lng": "117.656944", 
        "population": "124108"
    }, 
    {
        "city": "Xilin Hot", 
        "admin": "Inner Mongolia", 
        "country": "China", 
        "population_proper": "111348", 
        "iso2": "CN", 
        "capital": "", 
        "lat": "43.966667", 
        "lng": "116.033333", 
        "population": "120965"
    }, 
    {
        "city": "Huanghua", 
        "admin": "Hebei", 
        "country": "China", 
        "population_proper": "88486", 
        "iso2": "CN", 
        "capital": "", 
        "lat": "38.368333", 
        "lng": "117.351389", 
        "population": "120000"
    }, 
    {
        "city": "Longsheng", 
        "admin": "Guizhou", 
        "country": "China", 
        "population_proper": "90593", 
        "iso2": "CN", 
        "capital": "", 
        "lat": "27.6644", 
        "lng": "109.143", 
        "population": "118290"
    }, 
    {
        "city": "Huanren", 
        "admin": "Liaoning", 
        "country": "China", 
        "population_proper": "66147", 
        "iso2": "CN", 
        "capital": "", 
        "lat": "41.264722", 
        "lng": "125.366667", 
        "population": "116621"
    }, 
    {
        "city": "Yakeshi", 
        "admin": "Inner Mongolia", 
        "country": "China", 
        "population_proper": "97810", 
        "iso2": "CN", 
        "capital": "minor", 
        "lat": "49.283333", 
        "lng": "120.733333", 
        "population": "116284"
    }, 
    {
        "city": "Binzhou", 
        "admin": "Shandong", 
        "country": "China", 
        "population_proper": "115893", 
        "iso2": "CN", 
        "capital": "", 
        "lat": "37.366667", 
        "lng": "118.016667", 
        "population": "115893"
    }, 
    {
        "city": "Zhijiang", 
        "admin": "Hunan", 
        "country": "China", 
        "population_proper": "113907", 
        "iso2": "CN", 
        "capital": "minor", 
        "lat": "27.458139", 
        "lng": "109.659196", 
        "population": "113907"
    }, 
    {
        "city": "Shaowu", 
        "admin": "Fujian", 
        "country": "China", 
        "population_proper": "1194", 
        "iso2": "CN", 
        "capital": "", 
        "lat": "27.340891", 
        "lng": "117.483096", 
        "population": "112585"
    }, 
    {
        "city": "Kuqa", 
        "admin": "Xinjiang", 
        "country": "China", 
        "population_proper": "68105", 
        "iso2": "CN", 
        "capital": "minor", 
        "lat": "41.727778", 
        "lng": "82.936389", 
        "population": "111499"
    }, 
    {
        "city": "Hailun", 
        "admin": "Heilongjiang", 
        "country": "China", 
        "population_proper": "99816", 
        "iso2": "CN", 
        "capital": "minor", 
        "lat": "47.4565", 
        "lng": "126.953678", 
        "population": "109881"
    }, 
    {
        "city": "Dali", 
        "admin": "Shaanxi", 
        "country": "China", 
        "population_proper": "109696", 
        "iso2": "CN", 
        "capital": "minor", 
        "lat": "34.795863", 
        "lng": "109.938948", 
        "population": "109696"
    }, 
    {
        "city": "Tieli", 
        "admin": "Heilongjiang", 
        "country": "China", 
        "population_proper": "108821", 
        "iso2": "CN", 
        "capital": "minor", 
        "lat": "46.980428", 
        "lng": "128.044975", 
        "population": "109636"
    }, 
    {
        "city": "Heihe", 
        "admin": "Heilongjiang", 
        "country": "China", 
        "population_proper": "419", 
        "iso2": "CN", 
        "capital": "minor", 
        "lat": "50.250979", 
        "lng": "127.4773", 
        "population": "109427"
    }, 
    {
        "city": "Karamay", 
        "admin": "Xinjiang", 
        "country": "China", 
        "population_proper": "108769", 
        "iso2": "CN", 
        "capital": "minor", 
        "lat": "45.598587", 
        "lng": "84.865461", 
        "population": "108769"
    }, 
    {
        "city": "Nehe", 
        "admin": "Heilongjiang", 
        "country": "China", 
        "population_proper": "41622", 
        "iso2": "CN", 
        "capital": "", 
        "lat": "48.483333", 
        "lng": "124.833333", 
        "population": "108253"
    }, 
    {
        "city": "Golmud", 
        "admin": "Qinghai", 
        "country": "China", 
        "population_proper": "107092", 
        "iso2": "CN", 
        "capital": "minor", 
        "lat": "36.406717", 
        "lng": "94.900606", 
        "population": "107092"
    }, 
    {
        "city": "Longjiang", 
        "admin": "Heilongjiang", 
        "country": "China", 
        "population_proper": "67846", 
        "iso2": "CN", 
        "capital": "minor", 
        "lat": "47.33072", 
        "lng": "123.17816", 
        "population": "106384"
    }, 
    {
        "city": "Qamdo", 
        "admin": "Tibet", 
        "country": "China", 
        "population_proper": "86280", 
        "iso2": "CN", 
        "capital": "minor", 
        "lat": "31.143107", 
        "lng": "97.176301", 
        "population": "100000"
    }, 
    {
        "city": "Tumen", 
        "admin": "Jilin", 
        "country": "China", 
        "population_proper": "78719", 
        "iso2": "CN", 
        "capital": "", 
        "lat": "42.966111", 
        "lng": "129.8425", 
        "population": "99721"
    }, 
    {
        "city": "Shangzhi", 
        "admin": "Heilongjiang", 
        "country": "China", 
        "population_proper": "82419", 
        "iso2": "CN", 
        "capital": "minor", 
        "lat": "45.214064", 
        "lng": "127.974256", 
        "population": "96980"
    }, 
    {
        "city": "Boli", 
        "admin": "Heilongjiang", 
        "country": "China", 
        "population_proper": "71374", 
        "iso2": "CN", 
        "capital": "minor", 
        "lat": "45.752794", 
        "lng": "130.572112", 
        "population": "95260"
    }, 
    {
        "city": "Yishui", 
        "admin": "Shandong", 
        "country": "China", 
        "population_proper": "94115", 
        "iso2": "CN", 
        "capital": "", 
        "lat": "35.784722", 
        "lng": "118.628056", 
        "population": "94115"
    }, 
    {
        "city": "Manzhouli", 
        "admin": "Inner Mongolia", 
        "country": "China", 
        "population_proper": "54808", 
        "iso2": "CN", 
        "capital": "", 
        "lat": "49.6", 
        "lng": "117.433333", 
        "population": "93620"
    }, 
    {
        "city": "Dalai", 
        "admin": "Jilin", 
        "country": "China", 
        "population_proper": "76294", 
        "iso2": "CN", 
        "capital": "", 
        "lat": "45.5", 
        "lng": "124.3", 
        "population": "93297"
    }, 
    {
        "city": "Yejiagou", 
        "admin": "Hubei", 
        "country": "China", 
        "population_proper": "92008", 
        "iso2": "CN", 
        "capital": "", 
        "lat": "32.498158", 
        "lng": "111.476276", 
        "population": "92008"
    }, 
    {
        "city": "Pingdu", 
        "admin": "Shandong", 
        "country": "China", 
        "population_proper": "91077", 
        "iso2": "CN", 
        "capital": "", 
        "lat": "36.784444", 
        "lng": "119.946389", 
        "population": "91077"
    }, 
    {
        "city": "Fujin", 
        "admin": "Heilongjiang", 
        "country": "China", 
        "population_proper": "70743", 
        "iso2": "CN", 
        "capital": "", 
        "lat": "47.26", 
        "lng": "132.032222", 
        "population": "89442"
    }, 
    {
        "city": "Wangqing", 
        "admin": "Jilin", 
        "country": "China", 
        "population_proper": "70918", 
        "iso2": "CN", 
        "capital": "minor", 
        "lat": "43.321787", 
        "lng": "129.763416", 
        "population": "88732"
    }, 
    {
        "city": "Guangming", 
        "admin": "Fujian", 
        "country": "China", 
        "population_proper": "87458", 
        "iso2": "CN", 
        "capital": "", 
        "lat": "25.861795", 
        "lng": "116.302318", 
        "population": "87458"
    }, 
    {
        "city": "Mishan", 
        "admin": "Heilongjiang", 
        "country": "China", 
        "population_proper": "73661", 
        "iso2": "CN", 
        "capital": "", 
        "lat": "45.543056", 
        "lng": "131.882222", 
        "population": "87257"
    }, 
    {
        "city": "Nenjiang", 
        "admin": "Heilongjiang", 
        "country": "China", 
        "population_proper": "72134", 
        "iso2": "CN", 
        "capital": "minor", 
        "lat": "49.174143", 
        "lng": "125.21774", 
        "population": "87236"
    }, 
    {
        "city": "Panshi", 
        "admin": "Jilin", 
        "country": "China", 
        "population_proper": "80200", 
        "iso2": "CN", 
        "capital": "", 
        "lat": "42.942222", 
        "lng": "126.056111", 
        "population": "86216"
    }, 
    {
        "city": "Hedong", 
        "admin": "Jilin", 
        "country": "China", 
        "population_proper": "80309", 
        "iso2": "CN", 
        "capital": "", 
        "lat": "42.564032", 
        "lng": "128.998051", 
        "population": "85756"
    }, 
    {
        "city": "Linjiang", 
        "admin": "Jilin", 
        "country": "China", 
        "population_proper": "69149", 
        "iso2": "CN", 
        "capital": "minor", 
        "lat": "41.806944", 
        "lng": "126.907778", 
        "population": "84315"
    }, 
    {
        "city": "Nangong", 
        "admin": "Hebei", 
        "country": "China", 
        "population_proper": "82386", 
        "iso2": "CN", 
        "capital": "", 
        "lat": "37.358056", 
        "lng": "115.374444", 
        "population": "82386"
    }, 
    {
        "city": "Koktokay", 
        "admin": "Xinjiang", 
        "country": "China", 
        "population_proper": "40000", 
        "iso2": "CN", 
        "capital": "minor", 
        "lat": "46.990665", 
        "lng": "89.523615", 
        "population": "80000"
    }, 
    {
        "city": "Xigaz\u00ea", 
        "admin": "Tibet", 
        "country": "China", 
        "population_proper": "38629", 
        "iso2": "CN", 
        "capital": "minor", 
        "lat": "29.25", 
        "lng": "88.883333", 
        "population": "80000"
    }, 
    {
        "city": "Shulan", 
        "admin": "Jilin", 
        "country": "China", 
        "population_proper": "77420", 
        "iso2": "CN", 
        "capital": "", 
        "lat": "44.416667", 
        "lng": "126.95", 
        "population": "78764"
    }, 
    {
        "city": "Pingyi", 
        "admin": "Shandong", 
        "country": "China", 
        "population_proper": "78254", 
        "iso2": "CN", 
        "capital": "", 
        "lat": "35.500556", 
        "lng": "117.630833", 
        "population": "78254"
    }, 
    {
        "city": "Linkou", 
        "admin": "Heilongjiang", 
        "country": "China", 
        "population_proper": "55099", 
        "iso2": "CN", 
        "capital": "minor", 
        "lat": "45.286057", 
        "lng": "130.26151", 
        "population": "77754"
    }, 
    {
        "city": "Jiexiu", 
        "admin": "Shanxi", 
        "country": "China", 
        "population_proper": "77178", 
        "iso2": "CN", 
        "capital": "", 
        "lat": "37.024444", 
        "lng": "111.9125", 
        "population": "77178"
    }, 
    {
        "city": "Tailai", 
        "admin": "Heilongjiang", 
        "country": "China", 
        "population_proper": "66623", 
        "iso2": "CN", 
        "capital": "minor", 
        "lat": "46.389089", 
        "lng": "123.413715", 
        "population": "75992"
    }, 
    {
        "city": "Lanxi", 
        "admin": "Heilongjiang", 
        "country": "China", 
        "population_proper": "61494", 
        "iso2": "CN", 
        "capital": "minor", 
        "lat": "46.25785", 
        "lng": "126.282691", 
        "population": "72528"
    }, 
    {
        "city": "Keshan", 
        "admin": "Heilongjiang", 
        "country": "China", 
        "population_proper": "72403", 
        "iso2": "CN", 
        "capital": "", 
        "lat": "48.066667", 
        "lng": "125.9", 
        "population": "72403"
    }, 
    {
        "city": "Anlu", 
        "admin": "Hubei", 
        "country": "China", 
        "population_proper": "71198", 
        "iso2": "CN", 
        "capital": "minor", 
        "lat": "31.2575", 
        "lng": "113.678333", 
        "population": "71198"
    }, 
    {
        "city": "Baiquan", 
        "admin": "Heilongjiang", 
        "country": "China", 
        "population_proper": "34887", 
        "iso2": "CN", 
        "capital": "minor", 
        "lat": "47.606047", 
        "lng": "126.084812", 
        "population": "70472"
    }, 
    {
        "city": "Liuhe", 
        "admin": "Jilin", 
        "country": "China", 
        "population_proper": "66975", 
        "iso2": "CN", 
        "capital": "minor", 
        "lat": "42.240066", 
        "lng": "125.717173", 
        "population": "68938"
    }, 
    {
        "city": "Huinan", 
        "admin": "Jilin", 
        "country": "China", 
        "population_proper": "20208", 
        "iso2": "CN", 
        "capital": "", 
        "lat": "42.6225", 
        "lng": "126.261389", 
        "population": "66315"
    }, 
    {
        "city": "Qinggang", 
        "admin": "Heilongjiang", 
        "country": "China", 
        "population_proper": "57728", 
        "iso2": "CN", 
        "capital": "minor", 
        "lat": "46.684692", 
        "lng": "126.105953", 
        "population": "64182"
    }, 
    {
        "city": "Shangchengjia", 
        "admin": "Jiangxi", 
        "country": "China", 
        "population_proper": "61469", 
        "iso2": "CN", 
        "capital": "", 
        "lat": "28.21749", 
        "lng": "115.776473", 
        "population": "61469"
    }, 
    {
        "city": "Langzhong", 
        "admin": "Sichuan", 
        "country": "China", 
        "population_proper": "60542", 
        "iso2": "CN", 
        "capital": "minor", 
        "lat": "31.55037", 
        "lng": "105.99381", 
        "population": "60542"
    }, 
    {
        "city": "Gannan", 
        "admin": "Heilongjiang", 
        "country": "China", 
        "population_proper": "34470", 
        "iso2": "CN", 
        "capital": "minor", 
        "lat": "47.914722", 
        "lng": "123.503056", 
        "population": "59239"
    }, 
    {
        "city": "Suileng", 
        "admin": "Heilongjiang", 
        "country": "China", 
        "population_proper": "57124", 
        "iso2": "CN", 
        "capital": "minor", 
        "lat": "47.248051", 
        "lng": "127.095348", 
        "population": "57789"
    }, 
    {
        "city": "Changling", 
        "admin": "Jilin", 
        "country": "China", 
        "population_proper": "37566", 
        "iso2": "CN", 
        "capital": "minor", 
        "lat": "44.265315", 
        "lng": "124.000452", 
        "population": "55841"
    }, 
    {
        "city": "Xinqing", 
        "admin": "Heilongjiang", 
        "country": "China", 
        "population_proper": "29820", 
        "iso2": "CN", 
        "capital": "", 
        "lat": "48.287012", 
        "lng": "129.523367", 
        "population": "55415"
    }, 
    {
        "city": "Ning\u2019an", 
        "admin": "Heilongjiang", 
        "country": "China", 
        "population_proper": "54636", 
        "iso2": "CN", 
        "capital": "minor", 
        "lat": "44.343949", 
        "lng": "129.465556", 
        "population": "54636"
    }, 
    {
        "city": "Qing\u2019an", 
        "admin": "Heilongjiang", 
        "country": "China", 
        "population_proper": "53206", 
        "iso2": "CN", 
        "capital": "minor", 
        "lat": "46.877586", 
        "lng": "127.50054", 
        "population": "53206"
    }, 
    {
        "city": "Tacheng", 
        "admin": "Xinjiang", 
        "country": "China", 
        "population_proper": "49796", 
        "iso2": "CN", 
        "capital": "minor", 
        "lat": "46.745347", 
        "lng": "82.958473", 
        "population": "49796"
    }, 
    {
        "city": "Yanshan", 
        "admin": "Guangxi", 
        "country": "China", 
        "population_proper": "47062", 
        "iso2": "CN", 
        "capital": "", 
        "lat": "24.4902", 
        "lng": "108.643", 
        "population": "47062"
    }, 
    {
        "city": "Chongyang", 
        "admin": "Hunan", 
        "country": "China", 
        "population_proper": "45617", 
        "iso2": "CN", 
        "capital": "", 
        "lat": "27.041111", 
        "lng": "111.168333", 
        "population": "45617"
    }, 
    {
        "city": "Hulin", 
        "admin": "Heilongjiang", 
        "country": "China", 
        "population_proper": "42559", 
        "iso2": "CN", 
        "capital": "", 
        "lat": "45.768611", 
        "lng": "132.992222", 
        "population": "42559"
    }, 
    {
        "city": "Oroqen Zizhiqi", 
        "admin": "Inner Mongolia", 
        "country": "China", 
        "population_proper": "40128", 
        "iso2": "CN", 
        "capital": "minor", 
        "lat": "50.566667", 
        "lng": "123.716667", 
        "population": "40128"
    }, 
    {
        "city": "Yi\u2019an", 
        "admin": "Heilongjiang", 
        "country": "China", 
        "population_proper": "39924", 
        "iso2": "CN", 
        "capital": "minor", 
        "lat": "47.889005", 
        "lng": "125.303923", 
        "population": "39924"
    }, 
    {
        "city": "Pingxiang", 
        "admin": "Guangxi", 
        "country": "China", 
        "population_proper": "31109", 
        "iso2": "CN", 
        "capital": "", 
        "lat": "22.096944", 
        "lng": "106.756667", 
        "population": "31109"
    }, 
    {
        "city": "Wuyuan", 
        "admin": "Inner Mongolia", 
        "country": "China", 
        "population_proper": "30057", 
        "iso2": "CN", 
        "capital": "", 
        "lat": "41.089167", 
        "lng": "108.272222", 
        "population": "30057"
    }, 
    {
        "city": "Tonghua", 
        "admin": "Jilin", 
        "country": "China", 
        "population_proper": "27227", 
        "iso2": "CN", 
        "capital": "", 
        "lat": "41.719722", 
        "lng": "125.926389", 
        "population": "27227"
    }, 
    {
        "city": "Lianwang", 
        "admin": "Yunnan", 
        "country": "China", 
        "population_proper": "18445", 
        "iso2": "CN", 
        "capital": "", 
        "lat": "26.8527", 
        "lng": "100.261", 
        "population": "18445"
    }, 
    {
        "city": "Bugt", 
        "admin": "Inner Mongolia", 
        "country": "China", 
        "population_proper": "17457", 
        "iso2": "CN", 
        "capital": "", 
        "lat": "48.783333", 
        "lng": "121.933333", 
        "population": "17457"
    }, 
    {
        "city": "Gyangz\u00ea", 
        "admin": "Tibet", 
        "country": "China", 
        "population_proper": "10000", 
        "iso2": "CN", 
        "capital": "minor", 
        "lat": "28.920263", 
        "lng": "89.599556", 
        "population": "10000"
    }, 
    {
        "city": "Gar", 
        "admin": "Tibet", 
        "country": "China", 
        "population_proper": "500", 
        "iso2": "CN", 
        "capital": "minor", 
        "lat": "32.11941", 
        "lng": "80.056099", 
        "population": "10000"
    }, 
    {
        "city": "Kailu", 
        "admin": "Inner Mongolia", 
        "country": "China", 
        "population_proper": "2809", 
        "iso2": "CN", 
        "capital": "minor", 
        "lat": "43.583333", 
        "lng": "121.2", 
        "population": "2809"
    }, 
    {
        "city": "Nagqu", 
        "admin": "Tibet", 
        "country": "China", 
        "population_proper": "2000", 
        "iso2": "CN", 
        "capital": "minor", 
        "lat": "31.476776", 
        "lng": "92.057291", 
        "population": "2500"
    }, 
    {
        "city": "Fulin", 
        "admin": "Sichuan", 
        "country": "China", 
        "population_proper": "1049", 
        "iso2": "CN", 
        "capital": "", 
        "lat": "29.347923", 
        "lng": "102.681881", 
        "population": "1049"
    }, 
    {
        "city": "Linxi", 
        "admin": "Inner Mongolia", 
        "country": "China", 
        "population_proper": "679", 
        "iso2": "CN", 
        "capital": "minor", 
        "lat": "43.516667", 
        "lng": "118.033333", 
        "population": "679"
    }, 
    {
        "city": "Dunhou", 
        "admin": "Jiangxi", 
        "country": "China", 
        "population_proper": "", 
        "iso2": "CN", 
        "capital": "minor", 
        "lat": "27.05", 
        "lng": "114.9", 
        "population": ""
    }, 
    {
        "city": "Laojie", 
        "admin": "Yunnan", 
        "country": "China", 
        "population_proper": "", 
        "iso2": "CN", 
        "capital": "minor", 
        "lat": "25.448286", 
        "lng": "99.556102", 
        "population": ""
    }, 
    {
        "city": "Mengshan", 
        "admin": "Guangxi", 
        "country": "China", 
        "population_proper": "", 
        "iso2": "CN", 
        "capital": "minor", 
        "lat": "24.214055", 
        "lng": "110.517751", 
        "population": ""
    }, 
    {
        "city": "Zhongcheng", 
        "admin": "Sichuan", 
        "country": "China", 
        "population_proper": "", 
        "iso2": "CN", 
        "capital": "minor", 
        "lat": "28.30954", 
        "lng": "105.230751", 
        "population": ""
    }, 
    {
        "city": "Kaiwen", 
        "admin": "Yunnan", 
        "country": "China", 
        "population_proper": "", 
        "iso2": "CN", 
        "capital": "minor", 
        "lat": "27.156102", 
        "lng": "99.834833", 
        "population": ""
    }, 
    {
        "city": "Kaitong", 
        "admin": "Jilin", 
        "country": "China", 
        "population_proper": "", 
        "iso2": "CN", 
        "capital": "minor", 
        "lat": "44.813513", 
        "lng": "123.149999", 
        "population": ""
    }, 
    {
        "city": "Fengzhou", 
        "admin": "Shanxi", 
        "country": "China", 
        "population_proper": "", 
        "iso2": "CN", 
        "capital": "minor", 
        "lat": "36.842778", 
        "lng": "112.854167", 
        "population": ""
    }, 
    {
        "city": "Chengwu", 
        "admin": "Shandong", 
        "country": "China", 
        "population_proper": "", 
        "iso2": "CN", 
        "capital": "minor", 
        "lat": "34.954066", 
        "lng": "115.884188", 
        "population": ""
    }, 
    {
        "city": "Yongning", 
        "admin": "Jiangxi", 
        "country": "China", 
        "population_proper": "", 
        "iso2": "CN", 
        "capital": "minor", 
        "lat": "28.524488", 
        "lng": "114.365765", 
        "population": ""
    }, 
    {
        "city": "Fengcheng", 
        "admin": "Guangxi", 
        "country": "China", 
        "population_proper": "", 
        "iso2": "CN", 
        "capital": "minor", 
        "lat": "24.571172", 
        "lng": "107.042432", 
        "population": ""
    }, 
    {
        "city": "Zhongba", 
        "admin": "Sichuan", 
        "country": "China", 
        "population_proper": "", 
        "iso2": "CN", 
        "capital": "minor", 
        "lat": "31.778191", 
        "lng": "104.739315", 
        "population": ""
    }, 
    {
        "city": "Tangyuan", 
        "admin": "Heilongjiang", 
        "country": "China", 
        "population_proper": "", 
        "iso2": "CN", 
        "capital": "minor", 
        "lat": "46.726422", 
        "lng": "129.899657", 
        "population": ""
    }, 
    {
        "city": "Longquan", 
        "admin": "Shanxi", 
        "country": "China", 
        "population_proper": "", 
        "iso2": "CN", 
        "capital": "minor", 
        "lat": "40.363801", 
        "lng": "113.66616", 
        "population": ""
    }, 
    {
        "city": "Fenglu", 
        "admin": "Yunnan", 
        "country": "China", 
        "population_proper": "", 
        "iso2": "CN", 
        "capital": "minor", 
        "lat": "24.676522", 
        "lng": "102.911293", 
        "population": ""
    }, 
    {
        "city": "Shule", 
        "admin": "Xinjiang", 
        "country": "China", 
        "population_proper": "", 
        "iso2": "CN", 
        "capital": "minor", 
        "lat": "39.402313", 
        "lng": "76.050804", 
        "population": ""
    }, 
    {
        "city": "Yancheng", 
        "admin": "Sichuan", 
        "country": "China", 
        "population_proper": "", 
        "iso2": "CN", 
        "capital": "minor", 
        "lat": "29.743574", 
        "lng": "103.566793", 
        "population": ""
    }, 
    {
        "city": "Jiaji", 
        "admin": "Hainan", 
        "country": "China", 
        "population_proper": "", 
        "iso2": "CN", 
        "capital": "minor", 
        "lat": "19.2425", 
        "lng": "110.464167", 
        "population": ""
    }, 
    {
        "city": "Tafeng", 
        "admin": "Hunan", 
        "country": "China", 
        "population_proper": "", 
        "iso2": "CN", 
        "capital": "minor", 
        "lat": "25.354071", 
        "lng": "112.189866", 
        "population": ""
    },